%time,field.header.seq,field.header.stamp,field.header.frame_id,field.status.status,field.status.service,field.latitude,field.longitude,field.altitude,field.position_covariance0,field.position_covariance1,field.position_covariance2,field.position_covariance3,field.position_covariance4,field.position_covariance5,field.position_covariance6,field.position_covariance7,field.position_covariance8,field.position_covariance_type
1588238462557633159,6271,1588238462555031061,/gps,0,1,35.6751048783,128.448029517,49.959,0.3025,0.0,0.0,0.0,0.3025,0.0,0.0,0.0,1.21,1
1588238462685546996,6272,1588238462684814929,/gps,0,1,35.6751048733,128.448029512,49.961,0.3025,0.0,0.0,0.0,0.3025,0.0,0.0,0.0,1.21,1
1588238462812104313,6273,1588238462810724973,/gps,0,1,35.6751048733,128.448029517,49.959,0.3025,0.0,0.0,0.0,0.3025,0.0,0.0,0.0,1.21,1
1588238462944444657,6274,1588238462944107055,/gps,0,1,35.6751048767,128.448029523,49.96,0.3025,0.0,0.0,0.0,0.3025,0.0,0.0,0.0,1.21,1
1588238463070694568,6275,1588238463069566011,/gps,0,1,35.67510487,128.448029512,49.962,0.3025,0.0,0.0,0.0,0.3025,0.0,0.0,0.0,1.21,1
1588238463201029438,6276,1588238463199027061,/gps,0,1,35.67510487,128.448029523,49.961,0.3025,0.0,0.0,0.0,0.3025,0.0,0.0,0.0,1.21,1
1588238463327294157,6277,1588238463326764106,/gps,0,1,35.6751048683,128.448029523,49.962,0.3025,0.0,0.0,0.0,0.3025,0.0,0.0,0.0,1.21,1
1588238463456366194,6278,1588238463455189943,/gps,0,1,35.6751048733,128.448029517,49.962,0.3025,0.0,0.0,0.0,0.3025,0.0,0.0,0.0,1.21,1
1588238463583707220,6279,1588238463582945108,/gps,0,1,35.6751048867,128.448029528,49.96,0.3025,0.0,0.0,0.0,0.3025,0.0,0.0,0.0,1.21,1
1588238463681290318,6280,1588238463676585912,/gps,0,1,35.67510488,128.448029523,49.96,0.3025,0.0,0.0,0.0,0.3025,0.0,0.0,0.0,1.21,1
1588238463808149988,6281,1588238463807457923,/gps,0,1,35.67510487,128.448029535,49.963,0.3025,0.0,0.0,0.0,0.3025,0.0,0.0,0.0,1.21,1
1588238463930234044,6282,1588238463929888010,/gps,0,1,35.6751048683,128.448029537,49.965,0.3025,0.0,0.0,0.0,0.3025,0.0,0.0,0.0,1.21,1
1588238464064473392,6283,1588238464063786029,/gps,0,1,35.6751048683,128.448029535,49.964,0.3025,0.0,0.0,0.0,0.3025,0.0,0.0,0.0,1.21,1
1588238464187658202,6284,1588238464187369108,/gps,0,1,35.675104865,128.44802954,49.963,0.3025,0.0,0.0,0.0,0.3025,0.0,0.0,0.0,1.21,1
1588238464320227175,6285,1588238464318345069,/gps,0,1,35.6751048633,128.448029537,49.961,0.3025,0.0,0.0,0.0,0.3025,0.0,0.0,0.0,1.21,1
1588238464446749453,6286,1588238464445647001,/gps,0,1,35.6751048617,128.448029535,49.966,0.3025,0.0,0.0,0.0,0.3025,0.0,0.0,0.0,1.21,1
1588238464573259529,6287,1588238464572828054,/gps,0,1,35.6751048583,128.448029528,49.964,0.3025,0.0,0.0,0.0,0.3025,0.0,0.0,0.0,1.21,1
1588238464668359814,6288,1588238464667406082,/gps,0,1,35.6751048633,128.44802952,49.965,0.3025,0.0,0.0,0.0,0.3025,0.0,0.0,0.0,1.21,1
1588238464832586182,6289,1588238464830204963,/gps,0,1,35.6751048567,128.44802951,49.965,0.3025,0.0,0.0,0.0,0.3025,0.0,0.0,0.0,1.21,1
1588238464926063676,6290,1588238464925753116,/gps,0,1,35.6751048683,128.448029507,49.964,0.3025,0.0,0.0,0.0,0.3025,0.0,0.0,0.0,1.21,1
1588238465055248113,6291,1588238465054085969,/gps,0,1,35.675104855,128.448029507,49.965,0.3025,0.0,0.0,0.0,0.3025,0.0,0.0,0.0,1.21,1
1588238465192599823,6292,1588238465184561014,/gps,0,1,35.675104865,128.448029502,49.966,0.3025,0.0,0.0,0.0,0.3025,0.0,0.0,0.0,1.21,1
1588238465309635051,6293,1588238465308680057,/gps,0,1,35.6751048517,128.448029502,49.964,0.3025,0.0,0.0,0.0,0.3025,0.0,0.0,0.0,1.21,1
1588238465442453822,6294,1588238465441385984,/gps,0,1,35.6751048483,128.448029498,49.968,0.3025,0.0,0.0,0.0,0.3025,0.0,0.0,0.0,1.21,1
1588238465563644948,6295,1588238465563302993,/gps,0,1,35.6751048567,128.448029493,49.968,0.3025,0.0,0.0,0.0,0.3025,0.0,0.0,0.0,1.21,1
1588238465692470415,6296,1588238465692066907,/gps,0,1,35.6751048483,128.44802949,49.968,0.3025,0.0,0.0,0.0,0.3025,0.0,0.0,0.0,1.21,1
1588238465821240693,6297,1588238465820647954,/gps,0,1,35.6751048467,128.448029485,49.969,0.3025,0.0,0.0,0.0,0.3025,0.0,0.0,0.0,1.21,1
1588238465951810708,6298,1588238465950794935,/gps,0,1,35.6751048383,128.44802948,49.969,0.3025,0.0,0.0,0.0,0.3025,0.0,0.0,0.0,1.21,1
1588238466082687853,6299,1588238466078655004,/gps,0,1,35.6751048333,128.448029477,49.969,0.3025,0.0,0.0,0.0,0.3025,0.0,0.0,0.0,1.21,1
1588238466206712951,6300,1588238466205679893,/gps,0,1,35.6751048317,128.448029482,49.967,0.3025,0.0,0.0,0.0,0.3025,0.0,0.0,0.0,1.21,1
1588238466295229629,6301,1588238466294433116,/gps,0,1,35.6751048267,128.44802948,49.966,0.3025,0.0,0.0,0.0,0.3025,0.0,0.0,0.0,1.21,1
1588238466424965938,6302,1588238466424014091,/gps,0,1,35.6751048133,128.448029482,49.967,0.3025,0.0,0.0,0.0,0.3025,0.0,0.0,0.0,1.21,1
1588238466555734849,6303,1588238466553162097,/gps,0,1,35.675104815,128.44802948,49.965,0.3025,0.0,0.0,0.0,0.3025,0.0,0.0,0.0,1.21,1
1588238466684279221,6304,1588238466682981967,/gps,0,1,35.6751048067,128.44802948,49.964,0.3025,0.0,0.0,0.0,0.3025,0.0,0.0,0.0,1.21,1
1588238466811114458,6305,1588238466810656070,/gps,0,1,35.6751047933,128.448029477,49.967,0.3025,0.0,0.0,0.0,0.3025,0.0,0.0,0.0,1.21,1
1588238466941828781,6306,1588238466941215038,/gps,0,1,35.6751047933,128.448029477,49.967,0.3025,0.0,0.0,0.0,0.3025,0.0,0.0,0.0,1.21,1
1588238467066798481,6307,1588238467066348075,/gps,0,1,35.675104785,128.44802948,49.968,0.3025,0.0,0.0,0.0,0.3025,0.0,0.0,0.0,1.21,1
1588238467197229253,6308,1588238467195621967,/gps,0,1,35.6751047783,128.448029477,49.967,0.3025,0.0,0.0,0.0,0.3025,0.0,0.0,0.0,1.21,1
1588238467323221230,6309,1588238467322720050,/gps,0,1,35.6751047767,128.44802948,49.969,0.3025,0.0,0.0,0.0,0.3025,0.0,0.0,0.0,1.21,1
1588238467452999821,6310,1588238467452642917,/gps,0,1,35.6751047617,128.448029473,49.969,0.3025,0.0,0.0,0.0,0.3025,0.0,0.0,0.0,1.21,1
1588238467582139254,6311,1588238467581239938,/gps,0,1,35.6751047683,128.448029477,49.97,0.3025,0.0,0.0,0.0,0.3025,0.0,0.0,0.0,1.21,1
1588238467671254390,6312,1588238467670125961,/gps,0,1,35.6751047617,128.448029473,49.971,0.3025,0.0,0.0,0.0,0.3025,0.0,0.0,0.0,1.21,1
1588238467804027324,6313,1588238467802560091,/gps,0,1,35.6751047783,128.448029483,49.969,0.3025,0.0,0.0,0.0,0.3025,0.0,0.0,0.0,1.21,1
1588238467934416854,6314,1588238467931380033,/gps,0,1,35.6751047567,128.448029477,49.97,0.3025,0.0,0.0,0.0,0.3025,0.0,0.0,0.0,1.21,1
1588238468057136465,6315,1588238468056601047,/gps,0,1,35.6751047633,128.448029488,49.972,0.3025,0.0,0.0,0.0,0.3025,0.0,0.0,0.0,1.21,1
1588238468187816362,6316,1588238468186419963,/gps,0,1,35.6751047533,128.448029477,49.975,0.3025,0.0,0.0,0.0,0.3025,0.0,0.0,0.0,1.21,1
1588238468316938439,6317,1588238468315979957,/gps,0,1,35.67510476,128.448029493,49.975,0.3025,0.0,0.0,0.0,0.3025,0.0,0.0,0.0,1.21,1
1588238468448503509,6318,1588238468447638034,/gps,0,1,35.6751047567,128.448029495,49.977,0.3025,0.0,0.0,0.0,0.3025,0.0,0.0,0.0,1.21,1
1588238468574943484,6319,1588238468573981046,/gps,0,1,35.675104755,128.44802949,49.977,0.3025,0.0,0.0,0.0,0.3025,0.0,0.0,0.0,1.21,1
1588238468700361865,6320,1588238468698530912,/gps,0,1,35.67510474,128.448029492,49.981,0.3025,0.0,0.0,0.0,0.3025,0.0,0.0,0.0,1.21,1
1588238468829409312,6321,1588238468827461957,/gps,0,1,35.6751047483,128.448029495,49.98,0.3025,0.0,0.0,0.0,0.3025,0.0,0.0,0.0,1.21,1
1588238468956446624,6322,1588238468956062078,/gps,0,1,35.6751047367,128.448029483,49.985,0.3025,0.0,0.0,0.0,0.3025,0.0,0.0,0.0,1.21,1
1588238469052392837,6323,1588238469051357984,/gps,0,1,35.6751047417,128.448029492,49.984,0.3025,0.0,0.0,0.0,0.3025,0.0,0.0,0.0,1.21,1
1588238469184102730,6324,1588238469181529045,/gps,0,1,35.6751047433,128.448029483,49.984,0.3025,0.0,0.0,0.0,0.3025,0.0,0.0,0.0,1.21,1
1588238469310437504,6325,1588238469309312105,/gps,0,1,35.67510475,128.44802948,49.985,0.3025,0.0,0.0,0.0,0.3025,0.0,0.0,0.0,1.21,1
1588238469432370241,6326,1588238469431714057,/gps,0,1,35.6751047533,128.448029487,49.981,0.3025,0.0,0.0,0.0,0.3025,0.0,0.0,0.0,1.21,1
1588238469564276850,6327,1588238469563847064,/gps,0,1,35.6751047417,128.448029472,49.987,0.3025,0.0,0.0,0.0,0.3025,0.0,0.0,0.0,1.21,1
1588238469733455237,6328,1588238469731364011,/gps,0,1,35.675104755,128.448029478,49.989,0.3025,0.0,0.0,0.0,0.3025,0.0,0.0,0.0,1.21,1
1588238469819148701,6329,1588238469818600893,/gps,0,1,35.6751047467,128.44802946,49.986,0.3025,0.0,0.0,0.0,0.3025,0.0,0.0,0.0,1.21,1
1588238469953008150,6330,1588238469949843883,/gps,0,1,35.6751047433,128.448029473,49.989,0.3025,0.0,0.0,0.0,0.3025,0.0,0.0,0.0,1.21,1
1588238470037727558,6331,1588238470037435054,/gps,0,1,35.6751047433,128.448029457,49.988,0.3025,0.0,0.0,0.0,0.3025,0.0,0.0,0.0,1.21,1
1588238470204165727,6332,1588238470203259944,/gps,0,1,35.67510473,128.448029458,49.99,0.3025,0.0,0.0,0.0,0.3025,0.0,0.0,0.0,1.21,1
1588238470295507410,6333,1588238470294853925,/gps,0,1,35.67510474,128.448029452,49.989,0.3025,0.0,0.0,0.0,0.3025,0.0,0.0,0.0,1.21,1
1588238470424250168,6334,1588238470423624038,/gps,0,1,35.6751047383,128.448029452,49.989,0.3025,0.0,0.0,0.0,0.3025,0.0,0.0,0.0,1.21,1
1588238470556591485,6335,1588238470555572032,/gps,0,1,35.6751047383,128.448029445,49.986,0.3025,0.0,0.0,0.0,0.3025,0.0,0.0,0.0,1.21,1
1588238470682160582,6336,1588238470680952072,/gps,0,1,35.6751047267,128.44802946,49.986,0.3025,0.0,0.0,0.0,0.3025,0.0,0.0,0.0,1.21,1
1588238470815540285,6337,1588238470814764022,/gps,0,1,35.6751047183,128.448029452,49.986,0.3025,0.0,0.0,0.0,0.3025,0.0,0.0,0.0,1.21,1
1588238470939691140,6338,1588238470937742948,/gps,0,1,35.6751047233,128.448029443,49.985,0.3025,0.0,0.0,0.0,0.3025,0.0,0.0,0.0,1.21,1
1588238471067082548,6339,1588238471066313028,/gps,0,1,35.6751047117,128.448029438,49.987,0.3025,0.0,0.0,0.0,0.3025,0.0,0.0,0.0,1.21,1
1588238471196371365,6340,1588238471194979906,/gps,0,1,35.6751047017,128.44802944,49.987,0.3025,0.0,0.0,0.0,0.3025,0.0,0.0,0.0,1.21,1
1588238471324138574,6341,1588238471323657035,/gps,0,1,35.6751047067,128.44802944,49.986,0.3025,0.0,0.0,0.0,0.3025,0.0,0.0,0.0,1.21,1
1588238471450161306,6342,1588238471449613094,/gps,0,1,35.6751046883,128.448029438,49.984,0.3025,0.0,0.0,0.0,0.3025,0.0,0.0,0.0,1.21,1
1588238471580059721,6343,1588238471578584909,/gps,0,1,35.6751046883,128.448029435,49.983,0.3025,0.0,0.0,0.0,0.3025,0.0,0.0,0.0,1.21,1
1588238471675041626,6344,1588238471672830104,/gps,0,1,35.675104675,128.448029443,49.984,0.3025,0.0,0.0,0.0,0.3025,0.0,0.0,0.0,1.21,1
1588238471801391409,6345,1588238471800147056,/gps,0,1,35.675104675,128.44802944,49.981,0.3025,0.0,0.0,0.0,0.3025,0.0,0.0,0.0,1.21,1
1588238471927106789,6346,1588238471926583051,/gps,0,1,35.6751046683,128.448029437,49.979,0.3025,0.0,0.0,0.0,0.3025,0.0,0.0,0.0,1.21,1
1588238472056703157,6347,1588238472055505037,/gps,0,1,35.67510466,128.44802944,49.982,0.3025,0.0,0.0,0.0,0.3025,0.0,0.0,0.0,1.21,1
1588238472185059430,6348,1588238472184315919,/gps,0,1,35.6751046517,128.44802944,49.98,0.3025,0.0,0.0,0.0,0.3025,0.0,0.0,0.0,1.21,1
1588238472314694619,6349,1588238472313390970,/gps,0,1,35.6751046433,128.448029435,49.982,0.3025,0.0,0.0,0.0,0.3025,0.0,0.0,0.0,1.21,1
1588238472440581586,6350,1588238472440105915,/gps,0,1,35.6751046367,128.448029433,49.981,0.3025,0.0,0.0,0.0,0.3025,0.0,0.0,0.0,1.21,1
1588238472575427429,6351,1588238472574456930,/gps,0,1,35.6751046383,128.448029435,49.979,0.3025,0.0,0.0,0.0,0.3025,0.0,0.0,0.0,1.21,1
1588238472698830600,6352,1588238472697525978,/gps,0,1,35.6751046267,128.448029443,49.978,0.3025,0.0,0.0,0.0,0.3025,0.0,0.0,0.0,1.21,1
1588238472825947912,6353,1588238472824827909,/gps,0,1,35.675104635,128.448029443,49.978,0.3025,0.0,0.0,0.0,0.3025,0.0,0.0,0.0,1.21,1
1588238472919555698,6354,1588238472919291019,/gps,0,1,35.6751046267,128.448029438,49.98,0.3025,0.0,0.0,0.0,0.3025,0.0,0.0,0.0,1.21,1
1588238473045152083,6355,1588238473044672012,/gps,0,1,35.6751046267,128.448029447,49.98,0.3025,0.0,0.0,0.0,0.3025,0.0,0.0,0.0,1.21,1
1588238473175766231,6356,1588238473175385951,/gps,0,1,35.675104625,128.448029445,49.978,0.3025,0.0,0.0,0.0,0.3025,0.0,0.0,0.0,1.21,1
1588238473304397459,6357,1588238473302736043,/gps,0,1,35.6751046183,128.448029463,49.981,0.3025,0.0,0.0,0.0,0.3025,0.0,0.0,0.0,1.21,1
1588238473434784704,6358,1588238473434312105,/gps,0,1,35.6751046233,128.448029453,49.981,0.3025,0.0,0.0,0.0,0.3025,0.0,0.0,0.0,1.21,1
1588238473561486692,6359,1588238473560688972,/gps,0,1,35.6751046317,128.44802945,49.978,0.3025,0.0,0.0,0.0,0.3025,0.0,0.0,0.0,1.21,1
1588238473689373437,6360,1588238473686739921,/gps,0,1,35.67510463,128.44802946,49.978,0.3025,0.0,0.0,0.0,0.3025,0.0,0.0,0.0,1.21,1
1588238473817488104,6361,1588238473816225051,/gps,0,1,35.6751046133,128.448029462,49.982,0.3025,0.0,0.0,0.0,0.3025,0.0,0.0,0.0,1.21,1
1588238473944990672,6362,1588238473944636106,/gps,0,1,35.6751046317,128.448029453,49.978,0.3136,0.0,0.0,0.0,0.3136,0.0,0.0,0.0,1.2544,1
1588238474073841166,6363,1588238474073364973,/gps,0,1,35.6751046317,128.448029462,49.982,0.3136,0.0,0.0,0.0,0.3136,0.0,0.0,0.0,1.2544,1
1588238474203156655,6364,1588238474202764034,/gps,0,1,35.6751046317,128.44802945,49.978,0.3136,0.0,0.0,0.0,0.3136,0.0,0.0,0.0,1.2544,1
1588238474335421748,6365,1588238474330835103,/gps,0,1,35.675104625,128.44802945,49.982,0.3136,0.0,0.0,0.0,0.3136,0.0,0.0,0.0,1.2544,1
1588238474419733425,6366,1588238474419403076,/gps,0,1,35.6751046317,128.448029448,49.981,0.3136,0.0,0.0,0.0,0.3136,0.0,0.0,0.0,1.2544,1
1588238474553205806,6367,1588238474552053928,/gps,0,1,35.6751046383,128.448029452,49.983,0.3136,0.0,0.0,0.0,0.3136,0.0,0.0,0.0,1.2544,1
1588238474682211150,6368,1588238474680282115,/gps,0,1,35.6751046217,128.448029447,49.982,0.3136,0.0,0.0,0.0,0.3136,0.0,0.0,0.0,1.2544,1
1588238474805914070,6369,1588238474805568933,/gps,0,1,35.675104635,128.448029447,49.982,0.3136,0.0,0.0,0.0,0.3136,0.0,0.0,0.0,1.2544,1
1588238474936601585,6370,1588238474936121940,/gps,0,1,35.67510463,128.448029453,49.982,0.3136,0.0,0.0,0.0,0.3136,0.0,0.0,0.0,1.2544,1
1588238475063729687,6371,1588238475062650918,/gps,0,1,35.6751046367,128.448029433,49.982,0.3136,0.0,0.0,0.0,0.3136,0.0,0.0,0.0,1.2544,1
1588238475196409405,6372,1588238475195915937,/gps,0,1,35.67510464,128.448029428,49.982,0.3136,0.0,0.0,0.0,0.3136,0.0,0.0,0.0,1.2544,1
1588238475322168562,6373,1588238475321527957,/gps,0,1,35.6751046283,128.448029425,49.985,0.3025,0.0,0.0,0.0,0.3025,0.0,0.0,0.0,1.21,1
1588238475409149453,6374,1588238475408468961,/gps,0,1,35.67510465,128.44802942,49.986,0.3025,0.0,0.0,0.0,0.3025,0.0,0.0,0.0,1.21,1
1588238475577044560,6375,1588238475576082944,/gps,0,1,35.675104635,128.448029417,49.98,0.3025,0.0,0.0,0.0,0.3025,0.0,0.0,0.0,1.21,1
1588238475673028032,6376,1588238475666080951,/gps,0,1,35.675104645,128.4480294,49.984,0.3025,0.0,0.0,0.0,0.3025,0.0,0.0,0.0,1.21,1
1588238475801882669,6377,1588238475801448106,/gps,0,1,35.6751046417,128.448029403,49.986,0.3025,0.0,0.0,0.0,0.3025,0.0,0.0,0.0,1.21,1
1588238475925982775,6378,1588238475924699068,/gps,0,1,35.6751046433,128.448029395,49.983,0.3025,0.0,0.0,0.0,0.3025,0.0,0.0,0.0,1.21,1
1588238476055633637,6379,1588238476054723978,/gps,0,1,35.6751046483,128.448029383,49.984,0.3025,0.0,0.0,0.0,0.3025,0.0,0.0,0.0,1.21,1
1588238476181194119,6380,1588238476180603027,/gps,0,1,35.675104655,128.448029377,49.986,0.3025,0.0,0.0,0.0,0.3025,0.0,0.0,0.0,1.21,1
1588238476310601146,6381,1588238476309962987,/gps,0,1,35.675104665,128.448029375,49.981,0.3025,0.0,0.0,0.0,0.3025,0.0,0.0,0.0,1.21,1
1588238476439487018,6382,1588238476438189029,/gps,0,1,35.6751046567,128.448029365,49.985,0.3025,0.0,0.0,0.0,0.3025,0.0,0.0,0.0,1.21,1
1588238476566420982,6383,1588238476565992116,/gps,0,1,35.67510466,128.448029357,49.985,0.3025,0.0,0.0,0.0,0.3025,0.0,0.0,0.0,1.21,1
1588238476694760441,6384,1588238476693722009,/gps,0,1,35.67510466,128.44802935,49.984,0.3025,0.0,0.0,0.0,0.3025,0.0,0.0,0.0,1.21,1
1588238476822808061,6385,1588238476822475910,/gps,0,1,35.6751046517,128.448029357,49.985,0.3025,0.0,0.0,0.0,0.3025,0.0,0.0,0.0,1.21,1
1588238476918452296,6386,1588238476917998075,/gps,0,1,35.6751046533,128.448029345,49.984,0.3025,0.0,0.0,0.0,0.3025,0.0,0.0,0.0,1.21,1
1588238477042328690,6387,1588238477041868925,/gps,0,1,35.67510464,128.448029347,49.989,0.3025,0.0,0.0,0.0,0.3025,0.0,0.0,0.0,1.21,1
1588238477176996299,6388,1588238477176225900,/gps,0,1,35.675104645,128.448029333,49.986,0.3025,0.0,0.0,0.0,0.3025,0.0,0.0,0.0,1.21,1
1588238477300610202,6389,1588238477300002098,/gps,0,1,35.6751046467,128.448029342,49.986,0.3025,0.0,0.0,0.0,0.3025,0.0,0.0,0.0,1.21,1
1588238477430652415,6390,1588238477429286003,/gps,0,1,35.67510464,128.448029333,49.989,0.3025,0.0,0.0,0.0,0.3025,0.0,0.0,0.0,1.21,1
1588238477556236815,6391,1588238477555690050,/gps,0,1,35.6751046517,128.448029328,49.989,0.3025,0.0,0.0,0.0,0.3025,0.0,0.0,0.0,1.21,1
1588238477684379800,6392,1588238477683931112,/gps,0,1,35.67510464,128.448029345,49.991,0.3025,0.0,0.0,0.0,0.3025,0.0,0.0,0.0,1.21,1
1588238477816577793,6393,1588238477815459966,/gps,0,1,35.6751046433,128.448029335,49.988,0.3025,0.0,0.0,0.0,0.3025,0.0,0.0,0.0,1.21,1
1588238477946501457,6394,1588238477945863962,/gps,0,1,35.67510465,128.448029347,49.986,0.3025,0.0,0.0,0.0,0.3025,0.0,0.0,0.0,1.21,1
1588238478072327438,6395,1588238478070429086,/gps,0,1,35.675104645,128.448029343,49.988,0.3025,0.0,0.0,0.0,0.3025,0.0,0.0,0.0,1.21,1
1588238478202369154,6396,1588238478200987100,/gps,0,1,35.675104635,128.448029342,49.991,0.3025,0.0,0.0,0.0,0.3025,0.0,0.0,0.0,1.21,1
1588238478331192355,6397,1588238478327703952,/gps,0,1,35.67510464,128.44802934,49.991,0.3025,0.0,0.0,0.0,0.3025,0.0,0.0,0.0,1.21,1
1588238478456553354,6398,1588238478456178903,/gps,0,1,35.6751046333,128.448029353,49.987,0.3025,0.0,0.0,0.0,0.3025,0.0,0.0,0.0,1.21,1
1588238478555263472,6399,1588238478554697036,/gps,0,1,35.6751046417,128.448029353,49.985,0.3136,0.0,0.0,0.0,0.3136,0.0,0.0,0.0,1.2544,1
1588238478682130631,6400,1588238478680257081,/gps,0,1,35.6751046333,128.448029347,49.986,0.3136,0.0,0.0,0.0,0.3136,0.0,0.0,0.0,1.2544,1
1588238478803748058,6401,1588238478803534030,/gps,0,1,35.6751046383,128.44802937,49.986,0.3136,0.0,0.0,0.0,0.3136,0.0,0.0,0.0,1.2544,1
1588238478937235662,6402,1588238478936544895,/gps,0,1,35.6751046367,128.448029358,49.987,0.3136,0.0,0.0,0.0,0.3136,0.0,0.0,0.0,1.2544,1
1588238479060649395,6403,1588238479059336900,/gps,0,1,35.67510464,128.448029372,49.986,0.3136,0.0,0.0,0.0,0.3136,0.0,0.0,0.0,1.2544,1
1588238479194439582,6404,1588238479192977905,/gps,0,1,35.6751046317,128.448029378,49.986,0.3136,0.0,0.0,0.0,0.3136,0.0,0.0,0.0,1.2544,1
1588238479317789630,6405,1588238479317440986,/gps,0,1,35.6751046217,128.44802939,49.984,0.3136,0.0,0.0,0.0,0.3136,0.0,0.0,0.0,1.2544,1
1588238479446521588,6406,1588238479445359945,/gps,0,1,35.67510462,128.448029388,49.99,0.3136,0.0,0.0,0.0,0.3136,0.0,0.0,0.0,1.2544,1
1588238479575131613,6407,1588238479574393033,/gps,0,1,35.6751046167,128.448029395,49.983,0.3136,0.0,0.0,0.0,0.3136,0.0,0.0,0.0,1.2544,1
1588238479666555394,6408,1588238479664710998,/gps,0,1,35.6751046233,128.448029397,49.981,0.3136,0.0,0.0,0.0,0.3136,0.0,0.0,0.0,1.2544,1
1588238479796459635,6409,1588238479795326948,/gps,0,1,35.6751046167,128.448029407,49.978,0.3136,0.0,0.0,0.0,0.3136,0.0,0.0,0.0,1.2544,1
1588238479920799945,6410,1588238479920429944,/gps,0,1,35.67510461,128.448029415,49.981,0.3136,0.0,0.0,0.0,0.3136,0.0,0.0,0.0,1.2544,1
1588238480058624971,6411,1588238480056415081,/gps,0,1,35.67510461,128.44802941,49.98,0.3136,0.0,0.0,0.0,0.3136,0.0,0.0,0.0,1.2544,1
1588238480182325717,6412,1588238480181756019,/gps,0,1,35.6751046,128.448029417,49.983,0.3136,0.0,0.0,0.0,0.3136,0.0,0.0,0.0,1.2544,1
1588238480310455457,6413,1588238480308274984,/gps,0,1,35.6751046,128.448029422,49.977,0.3136,0.0,0.0,0.0,0.3136,0.0,0.0,0.0,1.2544,1
1588238480438758055,6414,1588238480438261985,/gps,0,1,35.6751045983,128.448029432,49.98,0.3136,0.0,0.0,0.0,0.3136,0.0,0.0,0.0,1.2544,1
1588238480566655592,6415,1588238480565015077,/gps,0,1,35.6751045917,128.44802943,49.979,0.3136,0.0,0.0,0.0,0.3136,0.0,0.0,0.0,1.2544,1
1588238480693625627,6416,1588238480691847085,/gps,0,1,35.6751046017,128.448029422,49.977,0.3136,0.0,0.0,0.0,0.3136,0.0,0.0,0.0,1.2544,1
1588238480786173223,6417,1588238480784427881,/gps,0,1,35.675104605,128.448029432,49.975,0.3136,0.0,0.0,0.0,0.3136,0.0,0.0,0.0,1.2544,1
1588238480915485416,6418,1588238480914899110,/gps,0,1,35.6751045933,128.448029432,49.978,0.3136,0.0,0.0,0.0,0.3136,0.0,0.0,0.0,1.2544,1
1588238481040518309,6419,1588238481040026903,/gps,0,1,35.6751045983,128.448029438,49.974,0.3136,0.0,0.0,0.0,0.3136,0.0,0.0,0.0,1.2544,1
1588238481175723742,6420,1588238481174108028,/gps,0,1,35.675104595,128.448029435,49.974,0.3136,0.0,0.0,0.0,0.3136,0.0,0.0,0.0,1.2544,1
1588238481300675897,6421,1588238481299226045,/gps,0,1,35.6751046,128.448029435,49.973,0.3136,0.0,0.0,0.0,0.3136,0.0,0.0,0.0,1.2544,1
1588238481426954991,6422,1588238481426423072,/gps,0,1,35.6751046,128.448029435,49.974,0.3136,0.0,0.0,0.0,0.3136,0.0,0.0,0.0,1.2544,1
1588238481557476686,6423,1588238481557118892,/gps,0,1,35.6751045967,128.448029433,49.973,0.3136,0.0,0.0,0.0,0.3136,0.0,0.0,0.0,1.2544,1
1588238481682788558,6424,1588238481681962013,/gps,0,1,35.675104595,128.448029425,49.973,0.3136,0.0,0.0,0.0,0.3136,0.0,0.0,0.0,1.2544,1
1588238481816045679,6425,1588238481814884901,/gps,0,1,35.6751046017,128.448029423,49.972,0.3136,0.0,0.0,0.0,0.3136,0.0,0.0,0.0,1.2544,1
1588238481938879356,6426,1588238481938357114,/gps,0,1,35.6751046,128.44802943,49.97,0.3136,0.0,0.0,0.0,0.3136,0.0,0.0,0.0,1.2544,1
1588238482067485892,6427,1588238482067032098,/gps,0,1,35.67510461,128.448029425,49.968,0.3136,0.0,0.0,0.0,0.3136,0.0,0.0,0.0,1.2544,1
1588238482197241863,6428,1588238482196449041,/gps,0,1,35.6751046033,128.448029428,49.967,0.3136,0.0,0.0,0.0,0.3136,0.0,0.0,0.0,1.2544,1
1588238482290516256,6429,1588238482289608001,/gps,0,1,35.6751046133,128.448029427,49.968,0.3136,0.0,0.0,0.0,0.3136,0.0,0.0,0.0,1.2544,1
1588238482457462333,6430,1588238482455903053,/gps,0,1,35.6751046083,128.448029428,49.966,0.3136,0.0,0.0,0.0,0.3136,0.0,0.0,0.0,1.2544,1
1588238482543959854,6431,1588238482543745994,/gps,0,1,35.6751046083,128.448029417,49.965,0.3136,0.0,0.0,0.0,0.3136,0.0,0.0,0.0,1.2544,1
1588238482680307135,6432,1588238482678699970,/gps,0,1,35.67510462,128.448029425,49.964,0.3136,0.0,0.0,0.0,0.3136,0.0,0.0,0.0,1.2544,1
1588238482802407470,6433,1588238482801688909,/gps,0,1,35.6751046183,128.448029427,49.962,0.3136,0.0,0.0,0.0,0.3136,0.0,0.0,0.0,1.2544,1
1588238482931958178,6434,1588238482931267023,/gps,0,1,35.6751046217,128.448029427,49.961,0.3136,0.0,0.0,0.0,0.3136,0.0,0.0,0.0,1.2544,1
1588238483059763922,6435,1588238483058866024,/gps,0,1,35.6751046183,128.448029425,49.962,0.3136,0.0,0.0,0.0,0.3136,0.0,0.0,0.0,1.2544,1
1588238483187395416,6436,1588238483187036037,/gps,0,1,35.6751046133,128.448029432,49.959,0.3136,0.0,0.0,0.0,0.3136,0.0,0.0,0.0,1.2544,1
1588238483316757807,6437,1588238483316298007,/gps,0,1,35.67510462,128.448029425,49.96,0.3136,0.0,0.0,0.0,0.3136,0.0,0.0,0.0,1.2544,1
1588238483443338617,6438,1588238483442902088,/gps,0,1,35.67510462,128.44802942,49.957,0.3136,0.0,0.0,0.0,0.3136,0.0,0.0,0.0,1.2544,1
1588238483540666803,6439,1588238483539639949,/gps,0,1,35.675104615,128.44802942,49.957,0.3136,0.0,0.0,0.0,0.3136,0.0,0.0,0.0,1.2544,1
1588238483663448088,6440,1588238483661690950,/gps,0,1,35.6751046217,128.44802942,49.955,0.3136,0.0,0.0,0.0,0.3136,0.0,0.0,0.0,1.2544,1
1588238483790991946,6441,1588238483790437936,/gps,0,1,35.675104615,128.448029427,49.954,0.3136,0.0,0.0,0.0,0.3136,0.0,0.0,0.0,1.2544,1
1588238483920304661,6442,1588238483919900894,/gps,0,1,35.67510461,128.448029437,49.954,0.3136,0.0,0.0,0.0,0.3136,0.0,0.0,0.0,1.2544,1
1588238484052045699,6443,1588238484049747943,/gps,0,1,35.67510461,128.448029435,49.95,0.3136,0.0,0.0,0.0,0.3136,0.0,0.0,0.0,1.2544,1
1588238484177476718,6444,1588238484177014112,/gps,0,1,35.6751045933,128.44802944,49.954,0.3136,0.0,0.0,0.0,0.3136,0.0,0.0,0.0,1.2544,1
1588238484305225957,6445,1588238484304797887,/gps,0,1,35.67510459,128.448029455,49.952,0.3136,0.0,0.0,0.0,0.3136,0.0,0.0,0.0,1.2544,1
1588238484435247899,6446,1588238484433509111,/gps,0,1,35.675104585,128.448029458,49.95,0.3136,0.0,0.0,0.0,0.3136,0.0,0.0,0.0,1.2544,1
1588238484562078614,6447,1588238484561744928,/gps,0,1,35.675104585,128.44802946,49.947,0.3136,0.0,0.0,0.0,0.3136,0.0,0.0,0.0,1.2544,1
1588238484693170522,6448,1588238484690314054,/gps,0,1,35.6751045683,128.448029467,49.947,0.3136,0.0,0.0,0.0,0.3136,0.0,0.0,0.0,1.2544,1
1588238484818658886,6449,1588238484818142890,/gps,0,1,35.6751045633,128.44802948,49.947,0.3136,0.0,0.0,0.0,0.3136,0.0,0.0,0.0,1.2544,1
1588238484919463332,6450,1588238484910725116,/gps,0,1,35.675104555,128.448029472,49.945,0.3136,0.0,0.0,0.0,0.3136,0.0,0.0,0.0,1.2544,1
1588238485041841100,6451,1588238485040920972,/gps,0,1,35.675104545,128.448029482,49.947,0.3136,0.0,0.0,0.0,0.3136,0.0,0.0,0.0,1.2544,1
1588238485180307621,6452,1588238485178298950,/gps,0,1,35.6751045333,128.448029493,49.944,0.3136,0.0,0.0,0.0,0.3136,0.0,0.0,0.0,1.2544,1
1588238485298185293,6453,1588238485297663927,/gps,0,1,35.6751045267,128.448029493,49.947,0.3136,0.0,0.0,0.0,0.3136,0.0,0.0,0.0,1.2544,1
1588238485422909469,6454,1588238485422494888,/gps,0,1,35.6751045167,128.44802949,49.943,0.3136,0.0,0.0,0.0,0.3136,0.0,0.0,0.0,1.2544,1
1588238485555466912,6455,1588238485554785013,/gps,0,1,35.6751045067,128.448029503,49.944,0.3136,0.0,0.0,0.0,0.3136,0.0,0.0,0.0,1.2544,1
1588238485683672322,6456,1588238485682040929,/gps,0,1,35.6751045067,128.448029505,49.945,0.3136,0.0,0.0,0.0,0.3136,0.0,0.0,0.0,1.2544,1
1588238485813521222,6457,1588238485810013055,/gps,0,1,35.6751044817,128.448029505,49.949,0.3136,0.0,0.0,0.0,0.3136,0.0,0.0,0.0,1.2544,1
1588238485937907157,6458,1588238485936961889,/gps,0,1,35.6751044717,128.448029507,49.948,0.3136,0.0,0.0,0.0,0.3136,0.0,0.0,0.0,1.2544,1
1588238486066645594,6459,1588238486065078020,/gps,0,1,35.6751044833,128.448029528,49.941,0.3136,0.0,0.0,0.0,0.3136,0.0,0.0,0.0,1.2544,1
1588238486195737108,6460,1588238486194305896,/gps,0,1,35.6751044567,128.448029525,49.945,0.3136,0.0,0.0,0.0,0.3136,0.0,0.0,0.0,1.2544,1
1588238486323180931,6461,1588238486322683095,/gps,0,1,35.67510446,128.44802953,49.942,0.3136,0.0,0.0,0.0,0.3136,0.0,0.0,0.0,1.2544,1
1588238486416073517,6462,1588238486415585994,/gps,0,1,35.6751044583,128.448029548,49.943,0.3136,0.0,0.0,0.0,0.3136,0.0,0.0,0.0,1.2544,1
1588238486546008252,6463,1588238486544987916,/gps,0,1,35.6751044433,128.448029542,49.94,0.3136,0.0,0.0,0.0,0.3136,0.0,0.0,0.0,1.2544,1
1588238486675805517,6464,1588238486674833059,/gps,0,1,35.6751044367,128.448029543,49.942,0.3136,0.0,0.0,0.0,0.3136,0.0,0.0,0.0,1.2544,1
1588238486800097556,6465,1588238486799592971,/gps,0,1,35.6751044217,128.448029558,49.938,0.3136,0.0,0.0,0.0,0.3136,0.0,0.0,0.0,1.2544,1
1588238486930424970,6466,1588238486929215908,/gps,0,1,35.675104415,128.448029562,49.94,0.3136,0.0,0.0,0.0,0.3136,0.0,0.0,0.0,1.2544,1
1588238487055923241,6467,1588238487055658102,/gps,0,1,35.675104415,128.448029552,49.936,0.3136,0.0,0.0,0.0,0.3136,0.0,0.0,0.0,1.2544,1
1588238487184594607,6468,1588238487184163093,/gps,0,1,35.675104405,128.448029557,49.937,0.3136,0.0,0.0,0.0,0.3136,0.0,0.0,0.0,1.2544,1
1588238487316311058,6469,1588238487315407991,/gps,0,1,35.6751043883,128.448029553,49.937,0.3136,0.0,0.0,0.0,0.3136,0.0,0.0,0.0,1.2544,1
1588238487444750811,6470,1588238487443871974,/gps,0,1,35.6751043783,128.448029563,49.936,0.3136,0.0,0.0,0.0,0.3136,0.0,0.0,0.0,1.2544,1
1588238487573386556,6471,1588238487572380065,/gps,0,1,35.6751043733,128.448029573,49.934,0.3136,0.0,0.0,0.0,0.3136,0.0,0.0,0.0,1.2544,1
1588238487699808625,6472,1588238487698173999,/gps,0,1,35.6751043733,128.448029577,49.936,0.3136,0.0,0.0,0.0,0.3136,0.0,0.0,0.0,1.2544,1
1588238487795061052,6473,1588238487794174909,/gps,0,1,35.675104355,128.448029577,49.936,0.3136,0.0,0.0,0.0,0.3136,0.0,0.0,0.0,1.2544,1
1588238487921499478,6474,1588238487920540094,/gps,0,1,35.675104345,128.448029588,49.939,0.3136,0.0,0.0,0.0,0.3136,0.0,0.0,0.0,1.2544,1
1588238488047375203,6475,1588238488047000885,/gps,0,1,35.6751043367,128.448029583,49.935,0.3136,0.0,0.0,0.0,0.3136,0.0,0.0,0.0,1.2544,1
1588238488176554776,6476,1588238488176342010,/gps,0,1,35.6751043333,128.448029592,49.932,0.3136,0.0,0.0,0.0,0.3136,0.0,0.0,0.0,1.2544,1
1588238488304225304,6477,1588238488303826093,/gps,0,1,35.6751043183,128.448029573,49.934,0.3136,0.0,0.0,0.0,0.3136,0.0,0.0,0.0,1.2544,1
1588238488436093149,6478,1588238488434883117,/gps,0,1,35.67510433,128.448029572,49.932,0.3136,0.0,0.0,0.0,0.3136,0.0,0.0,0.0,1.2544,1
1588238488563333775,6479,1588238488562675952,/gps,0,1,35.6751043133,128.448029578,49.932,0.3136,0.0,0.0,0.0,0.3136,0.0,0.0,0.0,1.2544,1
1588238488689135334,6480,1588238488688599109,/gps,0,1,35.6751043033,128.448029587,49.931,0.3136,0.0,0.0,0.0,0.3136,0.0,0.0,0.0,1.2544,1
1588238488816322135,6481,1588238488815825939,/gps,0,1,35.6751042917,128.448029575,49.928,0.3136,0.0,0.0,0.0,0.3136,0.0,0.0,0.0,1.2544,1
1588238488906091772,6482,1588238488905869007,/gps,0,1,35.6751042867,128.448029567,49.93,0.3136,0.0,0.0,0.0,0.3136,0.0,0.0,0.0,1.2544,1
1588238489040936633,6483,1588238489040112972,/gps,0,1,35.675104315,128.448029578,49.926,0.3136,0.0,0.0,0.0,0.3136,0.0,0.0,0.0,1.2544,1
1588238489204901312,6484,1588238489203285932,/gps,0,1,35.67510427,128.44802958,49.929,0.3136,0.0,0.0,0.0,0.3136,0.0,0.0,0.0,1.2544,1
1588238489295948216,6485,1588238489294470071,/gps,0,1,35.67510428,128.448029535,49.925,0.3136,0.0,0.0,0.0,0.3136,0.0,0.0,0.0,1.2544,1
1588238489421338696,6486,1588238489420939922,/gps,0,1,35.6751042683,128.448029583,49.928,0.3136,0.0,0.0,0.0,0.3136,0.0,0.0,0.0,1.2544,1
1588238489554067555,6487,1588238489553073883,/gps,0,1,35.675104265,128.448029558,49.921,0.3136,0.0,0.0,0.0,0.3136,0.0,0.0,0.0,1.2544,1
1588238489681002196,6488,1588238489680649995,/gps,0,1,35.6751042517,128.448029553,49.919,0.3136,0.0,0.0,0.0,0.3136,0.0,0.0,0.0,1.2544,1
1588238489807469480,6489,1588238489806653976,/gps,0,1,35.67510425,128.448029558,49.924,0.3136,0.0,0.0,0.0,0.3136,0.0,0.0,0.0,1.2544,1
1588238489941887371,6490,1588238489940320968,/gps,0,1,35.6751042433,128.44802954,49.921,0.3136,0.0,0.0,0.0,0.3136,0.0,0.0,0.0,1.2544,1
1588238490065867764,6491,1588238490064968109,/gps,0,1,35.6751042417,128.448029542,49.92,0.3136,0.0,0.0,0.0,0.3136,0.0,0.0,0.0,1.2544,1
1588238490194168566,6492,1588238490193645000,/gps,0,1,35.6751042333,128.448029552,49.923,0.3136,0.0,0.0,0.0,0.3136,0.0,0.0,0.0,1.2544,1
1588238490321564499,6493,1588238490320915937,/gps,0,1,35.675104235,128.44802956,49.921,0.3136,0.0,0.0,0.0,0.3136,0.0,0.0,0.0,1.2544,1
1588238490451397520,6494,1588238490449688911,/gps,0,1,35.675104225,128.448029547,49.921,0.3136,0.0,0.0,0.0,0.3136,0.0,0.0,0.0,1.2544,1
1588238490543342120,6495,1588238490542890071,/gps,0,1,35.6751042217,128.448029548,49.921,0.3136,0.0,0.0,0.0,0.3136,0.0,0.0,0.0,1.2544,1
1588238490673817239,6496,1588238490673034906,/gps,0,1,35.6751042183,128.448029538,49.92,0.3136,0.0,0.0,0.0,0.3136,0.0,0.0,0.0,1.2544,1
1588238490797184754,6497,1588238490796869993,/gps,0,1,35.6751041967,128.448029543,49.923,0.3136,0.0,0.0,0.0,0.3136,0.0,0.0,0.0,1.2544,1
1588238490931879562,6498,1588238490929008007,/gps,0,1,35.6751042133,128.448029537,49.914,0.3136,0.0,0.0,0.0,0.3136,0.0,0.0,0.0,1.2544,1
1588238491055185906,6499,1588238491053951025,/gps,0,1,35.6751042067,128.448029537,49.92,0.3136,0.0,0.0,0.0,0.3136,0.0,0.0,0.0,1.2544,1
1588238491183379402,6500,1588238491182394981,/gps,0,1,35.6751042117,128.448029522,49.92,0.3136,0.0,0.0,0.0,0.3136,0.0,0.0,0.0,1.2544,1
1588238491313480315,6501,1588238491311775922,/gps,0,1,35.6751042167,128.448029523,49.917,0.3136,0.0,0.0,0.0,0.3136,0.0,0.0,0.0,1.2544,1
1588238491443152580,6502,1588238491442723989,/gps,0,1,35.6751042017,128.448029525,49.92,0.3136,0.0,0.0,0.0,0.3136,0.0,0.0,0.0,1.2544,1
1588238491570093018,6503,1588238491568109989,/gps,0,1,35.67510421,128.448029518,49.917,0.3136,0.0,0.0,0.0,0.3136,0.0,0.0,0.0,1.2544,1
1588238491659894452,6504,1588238491659353017,/gps,0,1,35.6751041867,128.448029522,49.917,0.3136,0.0,0.0,0.0,0.3136,0.0,0.0,0.0,1.2544,1
1588238491786033798,6505,1588238491785677909,/gps,0,1,35.6751041933,128.448029522,49.918,0.3136,0.0,0.0,0.0,0.3136,0.0,0.0,0.0,1.2544,1
1588238491917796976,6506,1588238491916719913,/gps,0,1,35.6751041867,128.448029515,49.92,0.3136,0.0,0.0,0.0,0.3136,0.0,0.0,0.0,1.2544,1
1588238492047807942,6507,1588238492046468973,/gps,0,1,35.6751041933,128.448029508,49.917,0.3136,0.0,0.0,0.0,0.3136,0.0,0.0,0.0,1.2544,1
1588238492177749404,6508,1588238492175940036,/gps,0,1,35.675104185,128.448029518,49.918,0.3136,0.0,0.0,0.0,0.3136,0.0,0.0,0.0,1.2544,1
1588238492303570463,6509,1588238492303107023,/gps,0,1,35.67510417,128.448029518,49.918,0.3364,0.0,0.0,0.0,0.3364,0.0,0.0,0.0,1.3456,1
1588238492434491979,6510,1588238492433540105,/gps,0,1,35.67510417,128.44802953,49.917,0.3364,0.0,0.0,0.0,0.3364,0.0,0.0,0.0,1.3456,1
1588238492562065274,6511,1588238492561459064,/gps,0,1,35.67510416,128.448029525,49.92,0.3364,0.0,0.0,0.0,0.3364,0.0,0.0,0.0,1.3456,1
1588238492689524992,6512,1588238492687321901,/gps,0,1,35.6751041533,128.448029515,49.918,0.3364,0.0,0.0,0.0,0.3364,0.0,0.0,0.0,1.3456,1
1588238492816080202,6513,1588238492815098047,/gps,0,1,35.67510416,128.448029527,49.919,0.3364,0.0,0.0,0.0,0.3364,0.0,0.0,0.0,1.3456,1
1588238492943572164,6514,1588238492942447900,/gps,0,1,35.6751041433,128.448029517,49.919,0.3364,0.0,0.0,0.0,0.3364,0.0,0.0,0.0,1.3456,1
1588238493072815558,6515,1588238493071831941,/gps,0,1,35.6751041433,128.448029513,49.917,0.3364,0.0,0.0,0.0,0.3364,0.0,0.0,0.0,1.3456,1
1588238493165300782,6516,1588238493164880037,/gps,0,1,35.6751041383,128.448029512,49.916,0.3364,0.0,0.0,0.0,0.3364,0.0,0.0,0.0,1.3456,1
1588238493292894570,6517,1588238493291858911,/gps,0,1,35.6751041317,128.44802951,49.915,0.3364,0.0,0.0,0.0,0.3364,0.0,0.0,0.0,1.3456,1
1588238493426984512,6518,1588238493425302982,/gps,0,1,35.6751041217,128.44802951,49.916,0.3364,0.0,0.0,0.0,0.3364,0.0,0.0,0.0,1.3456,1
1588238493553966518,6519,1588238493552575111,/gps,0,1,35.6751041133,128.448029515,49.92,0.3364,0.0,0.0,0.0,0.3364,0.0,0.0,0.0,1.3456,1
1588238493679413718,6520,1588238493677479028,/gps,0,1,35.675104115,128.448029515,49.919,0.3364,0.0,0.0,0.0,0.3364,0.0,0.0,0.0,1.3456,1
1588238493806466429,6521,1588238493805522918,/gps,0,1,35.6751041017,128.448029517,49.921,0.3364,0.0,0.0,0.0,0.3364,0.0,0.0,0.0,1.3456,1
1588238493939249336,6522,1588238493938280105,/gps,0,1,35.6751040967,128.448029523,49.919,0.3364,0.0,0.0,0.0,0.3364,0.0,0.0,0.0,1.3456,1
1588238494062143430,6523,1588238494061862945,/gps,0,1,35.6751040983,128.448029513,49.92,0.3364,0.0,0.0,0.0,0.3364,0.0,0.0,0.0,1.3456,1
1588238494192263675,6524,1588238494191108942,/gps,0,1,35.67510409,128.448029533,49.924,0.3364,0.0,0.0,0.0,0.3364,0.0,0.0,0.0,1.3456,1
1588238494319458625,6525,1588238494318744897,/gps,0,1,35.6751040883,128.44802952,49.926,0.3364,0.0,0.0,0.0,0.3364,0.0,0.0,0.0,1.3456,1
1588238494448112738,6526,1588238494447047948,/gps,0,1,35.6751040767,128.448029522,49.926,0.3364,0.0,0.0,0.0,0.3364,0.0,0.0,0.0,1.3456,1
1588238494553866780,6527,1588238494550915956,/gps,0,1,35.6751040917,128.448029515,49.921,0.3364,0.0,0.0,0.0,0.3364,0.0,0.0,0.0,1.3456,1
1588238494669792822,6528,1588238494667774915,/gps,0,1,35.6751040583,128.448029512,49.931,0.3364,0.0,0.0,0.0,0.3364,0.0,0.0,0.0,1.3456,1
1588238494799425617,6529,1588238494798645019,/gps,0,1,35.6751040667,128.448029523,49.925,0.3364,0.0,0.0,0.0,0.3364,0.0,0.0,0.0,1.3456,1
1588238494929602910,6530,1588238494929056882,/gps,0,1,35.6751040917,128.448029518,49.923,0.3364,0.0,0.0,0.0,0.3364,0.0,0.0,0.0,1.3456,1
1588238495052590263,6531,1588238495052243947,/gps,0,1,35.6751040833,128.448029498,49.926,0.3364,0.0,0.0,0.0,0.3364,0.0,0.0,0.0,1.3456,1
1588238495182563253,6532,1588238495181416034,/gps,0,1,35.6751040633,128.448029517,49.926,0.3364,0.0,0.0,0.0,0.3364,0.0,0.0,0.0,1.3456,1
1588238495311620663,6533,1588238495310746908,/gps,0,1,35.6751040867,128.448029495,49.925,0.3364,0.0,0.0,0.0,0.3364,0.0,0.0,0.0,1.3456,1
1588238495438019230,6534,1588238495437625885,/gps,0,1,35.6751040617,128.448029477,49.924,0.3364,0.0,0.0,0.0,0.3364,0.0,0.0,0.0,1.3456,1
1588238495569503864,6535,1588238495568813085,/gps,0,1,35.675104075,128.448029498,49.925,0.3364,0.0,0.0,0.0,0.3364,0.0,0.0,0.0,1.3456,1
1588238495696283860,6536,1588238495694466114,/gps,0,1,35.675104085,128.4480295,49.923,0.3364,0.0,0.0,0.0,0.3364,0.0,0.0,0.0,1.3456,1
1588238495823263407,6537,1588238495822791099,/gps,0,1,35.675104075,128.448029475,49.92,0.3136,0.0,0.0,0.0,0.3136,0.0,0.0,0.0,1.2544,1
1588238495913987503,6538,1588238495913589954,/gps,0,1,35.6751040833,128.448029473,49.923,0.3364,0.0,0.0,0.0,0.3364,0.0,0.0,0.0,1.3456,1
1588238496045058612,6539,1588238496044193983,/gps,0,1,35.6751040833,128.448029487,49.92,0.3364,0.0,0.0,0.0,0.3364,0.0,0.0,0.0,1.3456,1
1588238496177329999,6540,1588238496175661087,/gps,0,1,35.675104095,128.448029452,49.92,0.3136,0.0,0.0,0.0,0.3136,0.0,0.0,0.0,1.2544,1
1588238496301442589,6541,1588238496300945997,/gps,0,1,35.6751040833,128.448029448,49.92,0.3136,0.0,0.0,0.0,0.3136,0.0,0.0,0.0,1.2544,1
1588238496430549000,6542,1588238496429011106,/gps,0,1,35.6751040967,128.44802946,49.923,0.3136,0.0,0.0,0.0,0.3136,0.0,0.0,0.0,1.2544,1
1588238496561144850,6543,1588238496558717012,/gps,0,1,35.6751040917,128.448029438,49.921,0.3136,0.0,0.0,0.0,0.3136,0.0,0.0,0.0,1.2544,1
1588238496685859385,6544,1588238496685467004,/gps,0,1,35.6751040883,128.448029443,49.925,0.3136,0.0,0.0,0.0,0.3136,0.0,0.0,0.0,1.2544,1
1588238496816725880,6545,1588238496815078973,/gps,0,1,35.6751041,128.448029437,49.917,0.3136,0.0,0.0,0.0,0.3136,0.0,0.0,0.0,1.2544,1
1588238496942330192,6546,1588238496941380023,/gps,0,1,35.6751040967,128.448029432,49.922,0.3136,0.0,0.0,0.0,0.3136,0.0,0.0,0.0,1.2544,1
1588238497070102127,6547,1588238497069514036,/gps,0,1,35.6751041017,128.44802945,49.919,0.3136,0.0,0.0,0.0,0.3136,0.0,0.0,0.0,1.2544,1
1588238497200186103,6548,1588238497199644088,/gps,0,1,35.6751040917,128.448029438,49.92,0.3136,0.0,0.0,0.0,0.3136,0.0,0.0,0.0,1.2544,1
1588238497328810383,6549,1588238497327810049,/gps,0,1,35.6751041,128.448029418,49.917,0.3136,0.0,0.0,0.0,0.3136,0.0,0.0,0.0,1.2544,1
1588238497458499356,6550,1588238497456928968,/gps,0,1,35.675104105,128.448029437,49.913,0.3136,0.0,0.0,0.0,0.3136,0.0,0.0,0.0,1.2544,1
1588238497551214974,6551,1588238497549017906,/gps,0,1,35.6751041017,128.448029422,49.916,0.3136,0.0,0.0,0.0,0.3136,0.0,0.0,0.0,1.2544,1
1588238497684917718,6552,1588238497683696031,/gps,0,1,35.6751041117,128.448029407,49.914,0.3136,0.0,0.0,0.0,0.3136,0.0,0.0,0.0,1.2544,1
1588238497803695673,6553,1588238497803445100,/gps,0,1,35.67510411,128.448029415,49.918,0.3136,0.0,0.0,0.0,0.3136,0.0,0.0,0.0,1.2544,1
1588238497934607121,6554,1588238497933588027,/gps,0,1,35.67510411,128.448029403,49.917,0.3136,0.0,0.0,0.0,0.3136,0.0,0.0,0.0,1.2544,1
1588238498060899391,6555,1588238498060328006,/gps,0,1,35.675104105,128.448029408,49.918,0.3136,0.0,0.0,0.0,0.3136,0.0,0.0,0.0,1.2544,1
1588238498195167287,6556,1588238498194755077,/gps,0,1,35.6751040817,128.448029402,49.923,0.3136,0.0,0.0,0.0,0.3136,0.0,0.0,0.0,1.2544,1
1588238498320603754,6557,1588238498320034027,/gps,0,1,35.67510409,128.448029407,49.918,0.3136,0.0,0.0,0.0,0.3136,0.0,0.0,0.0,1.2544,1
1588238498446727581,6558,1588238498446516990,/gps,0,1,35.6751040617,128.448029407,49.922,0.3136,0.0,0.0,0.0,0.3136,0.0,0.0,0.0,1.2544,1
1588238498575310778,6559,1588238498574611902,/gps,0,1,35.6751040817,128.448029412,49.92,0.3136,0.0,0.0,0.0,0.3136,0.0,0.0,0.0,1.2544,1
1588238498666124888,6560,1588238498665029048,/gps,0,1,35.67510406,128.448029418,49.925,0.3136,0.0,0.0,0.0,0.3136,0.0,0.0,0.0,1.2544,1
1588238498793745942,6561,1588238498793469905,/gps,0,1,35.675104075,128.448029413,49.921,0.3136,0.0,0.0,0.0,0.3136,0.0,0.0,0.0,1.2544,1
1588238498930913597,6562,1588238498926148891,/gps,0,1,35.67510407,128.448029425,49.921,0.3136,0.0,0.0,0.0,0.3136,0.0,0.0,0.0,1.2544,1
1588238499051846099,6563,1588238499051517963,/gps,0,1,35.6751040717,128.448029407,49.921,0.3136,0.0,0.0,0.0,0.3136,0.0,0.0,0.0,1.2544,1
1588238499179862149,6564,1588238499179462909,/gps,0,1,35.6751040467,128.44802941,49.927,0.3136,0.0,0.0,0.0,0.3136,0.0,0.0,0.0,1.2544,1
1588238499309183366,6565,1588238499308384895,/gps,0,1,35.6751040667,128.448029405,49.926,0.3136,0.0,0.0,0.0,0.3136,0.0,0.0,0.0,1.2544,1
1588238499440890535,6566,1588238499437375068,/gps,0,1,35.6751040483,128.448029412,49.929,0.3136,0.0,0.0,0.0,0.3136,0.0,0.0,0.0,1.2544,1
1588238499565087925,6567,1588238499564872026,/gps,0,1,35.6751040383,128.4480294,49.932,0.3136,0.0,0.0,0.0,0.3136,0.0,0.0,0.0,1.2544,1
1588238499698722982,6568,1588238499697320938,/gps,0,1,35.6751040383,128.448029405,49.933,0.3136,0.0,0.0,0.0,0.3136,0.0,0.0,0.0,1.2544,1
1588238499825331393,6569,1588238499824727058,/gps,0,1,35.6751040317,128.448029392,49.936,0.3136,0.0,0.0,0.0,0.3136,0.0,0.0,0.0,1.2544,1
1588238499951697699,6570,1588238499950803995,/gps,0,1,35.6751040267,128.448029397,49.934,0.3136,0.0,0.0,0.0,0.3136,0.0,0.0,0.0,1.2544,1
1588238500079435202,6571,1588238500078833103,/gps,0,1,35.67510403,128.44802939,49.935,0.3136,0.0,0.0,0.0,0.3136,0.0,0.0,0.0,1.2544,1
1588238500209261559,6572,1588238500207573890,/gps,0,1,35.6751040183,128.448029383,49.939,0.3136,0.0,0.0,0.0,0.3136,0.0,0.0,0.0,1.2544,1
1588238500303970830,6573,1588238500303535938,/gps,0,1,35.6751040267,128.448029387,49.938,0.3136,0.0,0.0,0.0,0.3136,0.0,0.0,0.0,1.2544,1
1588238500436717768,6574,1588238500435080051,/gps,0,1,35.6751040267,128.448029385,49.937,0.3136,0.0,0.0,0.0,0.3136,0.0,0.0,0.0,1.2544,1
1588238500558092345,6575,1588238500557723045,/gps,0,1,35.6751040233,128.448029383,49.939,0.3136,0.0,0.0,0.0,0.3136,0.0,0.0,0.0,1.2544,1
1588238500682871547,6576,1588238500682451009,/gps,0,1,35.6751040317,128.448029385,49.942,0.3136,0.0,0.0,0.0,0.3136,0.0,0.0,0.0,1.2544,1
1588238500813787772,6577,1588238500813216924,/gps,0,1,35.6751040267,128.448029395,49.939,0.3136,0.0,0.0,0.0,0.3136,0.0,0.0,0.0,1.2544,1
1588238500940550695,6578,1588238500940243005,/gps,0,1,35.675104025,128.448029382,49.939,0.3136,0.0,0.0,0.0,0.3136,0.0,0.0,0.0,1.2544,1
1588238501069637283,6579,1588238501068639993,/gps,0,1,35.6751040317,128.44802939,49.941,0.3136,0.0,0.0,0.0,0.3136,0.0,0.0,0.0,1.2544,1
1588238501200047965,6580,1588238501198883056,/gps,0,1,35.6751040217,128.448029392,49.945,0.3136,0.0,0.0,0.0,0.3136,0.0,0.0,0.0,1.2544,1
1588238501330397110,6581,1588238501326821088,/gps,0,1,35.6751040183,128.448029383,49.943,0.3136,0.0,0.0,0.0,0.3136,0.0,0.0,0.0,1.2544,1
1588238501421816025,6582,1588238501421190023,/gps,0,1,35.675104025,128.448029378,49.944,0.3136,0.0,0.0,0.0,0.3136,0.0,0.0,0.0,1.2544,1
1588238501545885231,6583,1588238501545069932,/gps,0,1,35.67510402,128.448029378,49.941,0.3136,0.0,0.0,0.0,0.3136,0.0,0.0,0.0,1.2544,1
1588238501675289181,6584,1588238501674652099,/gps,0,1,35.67510402,128.44802936,49.941,0.3136,0.0,0.0,0.0,0.3136,0.0,0.0,0.0,1.2544,1
1588238501802002165,6585,1588238501801520109,/gps,0,1,35.675104035,128.448029368,49.941,0.3136,0.0,0.0,0.0,0.3136,0.0,0.0,0.0,1.2544,1
1588238501935667366,6586,1588238501934468984,/gps,0,1,35.675104035,128.448029358,49.943,0.3136,0.0,0.0,0.0,0.3136,0.0,0.0,0.0,1.2544,1
1588238502066325907,6587,1588238502064896106,/gps,0,1,35.6751040333,128.44802935,49.943,0.3136,0.0,0.0,0.0,0.3136,0.0,0.0,0.0,1.2544,1
1588238502191314003,6588,1588238502189680099,/gps,0,1,35.6751040533,128.448029357,49.939,0.3136,0.0,0.0,0.0,0.3136,0.0,0.0,0.0,1.2544,1
1588238502317147084,6589,1588238502316797018,/gps,0,1,35.6751040483,128.448029352,49.941,0.3136,0.0,0.0,0.0,0.3136,0.0,0.0,0.0,1.2544,1
1588238502444462322,6590,1588238502443859100,/gps,0,1,35.6751040567,128.448029363,49.939,0.3136,0.0,0.0,0.0,0.3136,0.0,0.0,0.0,1.2544,1
1588238502575826555,6591,1588238502574893951,/gps,0,1,35.6751040567,128.448029353,49.94,0.3136,0.0,0.0,0.0,0.3136,0.0,0.0,0.0,1.2544,1
1588238502701428533,6592,1588238502701108932,/gps,0,1,35.6751040533,128.448029372,49.937,0.3136,0.0,0.0,0.0,0.3136,0.0,0.0,0.0,1.2544,1
1588238502795131035,6593,1588238502794548034,/gps,0,1,35.67510405,128.448029352,49.94,0.3136,0.0,0.0,0.0,0.3136,0.0,0.0,0.0,1.2544,1
1588238502922737157,6594,1588238502921729087,/gps,0,1,35.6751040617,128.44802937,49.938,0.3136,0.0,0.0,0.0,0.3136,0.0,0.0,0.0,1.2544,1
1588238503050302421,6595,1588238503049602985,/gps,0,1,35.6751040617,128.448029363,49.938,0.3136,0.0,0.0,0.0,0.3136,0.0,0.0,0.0,1.2544,1
1588238503178496428,6596,1588238503178086042,/gps,0,1,35.675104055,128.448029365,49.939,0.3136,0.0,0.0,0.0,0.3136,0.0,0.0,0.0,1.2544,1
1588238503306292782,6597,1588238503305623054,/gps,0,1,35.6751040467,128.448029367,49.939,0.3136,0.0,0.0,0.0,0.3136,0.0,0.0,0.0,1.2544,1
1588238503437341684,6598,1588238503436093091,/gps,0,1,35.67510405,128.448029362,49.94,0.3136,0.0,0.0,0.0,0.3136,0.0,0.0,0.0,1.2544,1
1588238503564849557,6599,1588238503564414024,/gps,0,1,35.6751040317,128.448029357,49.938,0.3136,0.0,0.0,0.0,0.3136,0.0,0.0,0.0,1.2544,1
1588238503696022439,6600,1588238503694211959,/gps,0,1,35.67510403,128.448029353,49.942,0.3136,0.0,0.0,0.0,0.3136,0.0,0.0,0.0,1.2544,1
1588238503822554214,6601,1588238503821964979,/gps,0,1,35.6751040267,128.448029362,49.939,0.3136,0.0,0.0,0.0,0.3136,0.0,0.0,0.0,1.2544,1
1588238503949381864,6602,1588238503948267936,/gps,0,1,35.6751040167,128.448029348,49.941,0.3136,0.0,0.0,0.0,0.3136,0.0,0.0,0.0,1.2544,1
1588238504042256851,6603,1588238504041578054,/gps,0,1,35.6751040167,128.448029332,49.942,0.3136,0.0,0.0,0.0,0.3136,0.0,0.0,0.0,1.2544,1
1588238504208129770,6604,1588238504205868005,/gps,0,1,35.6751040167,128.448029347,49.943,0.3136,0.0,0.0,0.0,0.3136,0.0,0.0,0.0,1.2544,1
1588238504301274902,6605,1588238504300811052,/gps,0,1,35.6751040117,128.448029327,49.945,0.3136,0.0,0.0,0.0,0.3136,0.0,0.0,0.0,1.2544,1
1588238504430082160,6606,1588238504429507017,/gps,0,1,35.6751040133,128.44802934,49.945,0.3136,0.0,0.0,0.0,0.3136,0.0,0.0,0.0,1.2544,1
1588238504562860797,6607,1588238504561435937,/gps,0,1,35.6751039933,128.44802934,49.949,0.3364,0.0,0.0,0.0,0.3364,0.0,0.0,0.0,1.3456,1
1588238504681376400,6608,1588238504681162118,/gps,0,1,35.67510398,128.448029335,49.951,0.3364,0.0,0.0,0.0,0.3364,0.0,0.0,0.0,1.3456,1
1588238504811064969,6609,1588238504810167074,/gps,0,1,35.6751039883,128.44802934,49.95,0.3364,0.0,0.0,0.0,0.3364,0.0,0.0,0.0,1.3456,1
1588238504939634650,6610,1588238504938980102,/gps,0,1,35.6751039683,128.448029338,49.952,0.3364,0.0,0.0,0.0,0.3364,0.0,0.0,0.0,1.3456,1
1588238505067813501,6611,1588238505067147970,/gps,0,1,35.6751039783,128.448029327,49.957,0.3364,0.0,0.0,0.0,0.3364,0.0,0.0,0.0,1.3456,1
1588238505200899527,6612,1588238505199359893,/gps,0,1,35.6751039583,128.44802932,49.958,0.3364,0.0,0.0,0.0,0.3364,0.0,0.0,0.0,1.3456,1
1588238505284510250,6613,1588238505284221887,/gps,0,1,35.675103955,128.448029308,49.957,0.3364,0.0,0.0,0.0,0.3364,0.0,0.0,0.0,1.3456,1
1588238505453533564,6614,1588238505452438116,/gps,0,1,35.675103955,128.448029313,49.957,0.3364,0.0,0.0,0.0,0.3364,0.0,0.0,0.0,1.3456,1
1588238505543751251,6615,1588238505542263984,/gps,0,1,35.6751039483,128.448029318,49.96,0.3364,0.0,0.0,0.0,0.3364,0.0,0.0,0.0,1.3456,1
1588238505677582023,6616,1588238505677172899,/gps,0,1,35.6751039433,128.448029295,49.961,0.3364,0.0,0.0,0.0,0.3364,0.0,0.0,0.0,1.3456,1
1588238505802276576,6617,1588238505801779985,/gps,0,1,35.6751039283,128.448029308,49.963,0.3364,0.0,0.0,0.0,0.3364,0.0,0.0,0.0,1.3456,1
1588238505933916858,6618,1588238505933295011,/gps,0,1,35.6751039183,128.448029295,49.965,0.3364,0.0,0.0,0.0,0.3364,0.0,0.0,0.0,1.3456,1
1588238506058243590,6619,1588238506056668996,/gps,0,1,35.6751039133,128.44802929,49.971,0.3364,0.0,0.0,0.0,0.3364,0.0,0.0,0.0,1.3456,1
1588238506186895096,6620,1588238506186471939,/gps,0,1,35.6751039067,128.448029295,49.972,0.3364,0.0,0.0,0.0,0.3364,0.0,0.0,0.0,1.3456,1
1588238506315498171,6621,1588238506315054893,/gps,0,1,35.675103895,128.44802929,49.971,0.3364,0.0,0.0,0.0,0.3364,0.0,0.0,0.0,1.3456,1
1588238506445213669,6622,1588238506443816900,/gps,0,1,35.6751038967,128.448029275,49.972,0.3364,0.0,0.0,0.0,0.3364,0.0,0.0,0.0,1.3456,1
1588238506577582198,6623,1588238506575810909,/gps,0,1,35.6751038917,128.44802928,49.974,0.3364,0.0,0.0,0.0,0.3364,0.0,0.0,0.0,1.3456,1
1588238506702068677,6624,1588238506699510097,/gps,0,1,35.6751038717,128.448029275,49.974,0.3364,0.0,0.0,0.0,0.3364,0.0,0.0,0.0,1.3456,1
1588238506802022980,6625,1588238506801559925,/gps,0,1,35.67510388,128.448029257,49.978,0.3136,0.0,0.0,0.0,0.3136,0.0,0.0,0.0,1.2544,1
1588238506918003794,6626,1588238506917615890,/gps,0,1,35.675103865,128.448029268,49.977,0.3136,0.0,0.0,0.0,0.3136,0.0,0.0,0.0,1.2544,1
1588238507046874515,6627,1588238507045834064,/gps,0,1,35.6751038683,128.44802926,49.981,0.3136,0.0,0.0,0.0,0.3136,0.0,0.0,0.0,1.2544,1
1588238507176549654,6628,1588238507176214933,/gps,0,1,35.6751038583,128.448029257,49.982,0.3136,0.0,0.0,0.0,0.3136,0.0,0.0,0.0,1.2544,1
1588238507305367529,6629,1588238507303817033,/gps,0,1,35.6751038567,128.448029255,49.981,0.3136,0.0,0.0,0.0,0.3136,0.0,0.0,0.0,1.2544,1
1588238507438654769,6630,1588238507436989068,/gps,0,1,35.6751038517,128.448029243,49.98,0.3136,0.0,0.0,0.0,0.3136,0.0,0.0,0.0,1.2544,1
1588238507563074817,6631,1588238507562721014,/gps,0,1,35.6751038467,128.448029243,49.986,0.3136,0.0,0.0,0.0,0.3136,0.0,0.0,0.0,1.2544,1
1588238507690955883,6632,1588238507689841032,/gps,0,1,35.6751038433,128.44802923,49.986,0.3136,0.0,0.0,0.0,0.3136,0.0,0.0,0.0,1.2544,1
1588238507817602054,6633,1588238507817171096,/gps,0,1,35.67510384,128.448029242,49.986,0.3136,0.0,0.0,0.0,0.3136,0.0,0.0,0.0,1.2544,1
1588238507946839468,6634,1588238507946439981,/gps,0,1,35.67510384,128.448029227,49.986,0.3136,0.0,0.0,0.0,0.3136,0.0,0.0,0.0,1.2544,1
1588238508076376112,6635,1588238508075097084,/gps,0,1,35.6751038283,128.448029218,49.988,0.3136,0.0,0.0,0.0,0.3136,0.0,0.0,0.0,1.2544,1
1588238508205352024,6636,1588238508204566001,/gps,0,1,35.6751038333,128.448029217,49.987,0.3136,0.0,0.0,0.0,0.3136,0.0,0.0,0.0,1.2544,1
1588238508301407641,6637,1588238508300668001,/gps,0,1,35.6751038367,128.448029208,49.988,0.3136,0.0,0.0,0.0,0.3136,0.0,0.0,0.0,1.2544,1
1588238508425209741,6638,1588238508423120975,/gps,0,1,35.67510383,128.448029205,49.991,0.3136,0.0,0.0,0.0,0.3136,0.0,0.0,0.0,1.2544,1
1588238508558789273,6639,1588238508557940959,/gps,0,1,35.6751038133,128.448029202,49.993,0.3136,0.0,0.0,0.0,0.3136,0.0,0.0,0.0,1.2544,1
1588238508682669197,6640,1588238508681386947,/gps,0,1,35.67510382,128.448029203,49.992,0.3136,0.0,0.0,0.0,0.3136,0.0,0.0,0.0,1.2544,1
1588238508809140863,6641,1588238508808695077,/gps,0,1,35.675103805,128.448029188,49.997,0.3136,0.0,0.0,0.0,0.3136,0.0,0.0,0.0,1.2544,1
1588238508939225380,6642,1588238508937616109,/gps,0,1,35.6751038133,128.448029187,49.996,0.3136,0.0,0.0,0.0,0.3136,0.0,0.0,0.0,1.2544,1
1588238509067911052,6643,1588238509065677881,/gps,0,1,35.675103805,128.448029177,49.995,0.3136,0.0,0.0,0.0,0.3136,0.0,0.0,0.0,1.2544,1
1588238509199947778,6644,1588238509199681997,/gps,0,1,35.675103805,128.448029177,50.002,0.3136,0.0,0.0,0.0,0.3136,0.0,0.0,0.0,1.2544,1
1588238509323688159,6645,1588238509323134899,/gps,0,1,35.6751037967,128.448029172,49.999,0.3136,0.0,0.0,0.0,0.3136,0.0,0.0,0.0,1.2544,1
1588238509452064270,6646,1588238509451114892,/gps,0,1,35.6751038017,128.448029168,50.003,0.3136,0.0,0.0,0.0,0.3136,0.0,0.0,0.0,1.2544,1
1588238509580256272,6647,1588238509579716920,/gps,0,1,35.6751037867,128.448029167,50.002,0.3364,0.0,0.0,0.0,0.3364,0.0,0.0,0.0,1.3456,1
1588238509673655293,6648,1588238509670028924,/gps,0,1,35.6751037917,128.448029158,50.006,0.3364,0.0,0.0,0.0,0.3364,0.0,0.0,0.0,1.3456,1
1588238509799954947,6649,1588238509799516916,/gps,0,1,35.6751037867,128.448029155,50.006,0.3136,0.0,0.0,0.0,0.3136,0.0,0.0,0.0,1.2544,1
1588238509928810666,6650,1588238509927958965,/gps,0,1,35.675103785,128.448029143,50.007,0.3136,0.0,0.0,0.0,0.3136,0.0,0.0,0.0,1.2544,1
1588238510056972977,6651,1588238510055766105,/gps,0,1,35.6751037767,128.448029145,50.01,0.3136,0.0,0.0,0.0,0.3136,0.0,0.0,0.0,1.2544,1
1588238510183917330,6652,1588238510183394908,/gps,0,1,35.67510377,128.448029137,50.013,0.3136,0.0,0.0,0.0,0.3136,0.0,0.0,0.0,1.2544,1
1588238510314179524,6653,1588238510313138008,/gps,0,1,35.675103775,128.448029125,50.011,0.3136,0.0,0.0,0.0,0.3136,0.0,0.0,0.0,1.2544,1
1588238510442309731,6654,1588238510441914081,/gps,0,1,35.6751037567,128.448029138,50.013,0.3136,0.0,0.0,0.0,0.3136,0.0,0.0,0.0,1.2544,1
1588238510569816085,6655,1588238510569365978,/gps,0,1,35.6751037517,128.448029135,50.015,0.3136,0.0,0.0,0.0,0.3136,0.0,0.0,0.0,1.2544,1
1588238510663001657,6656,1588238510662524938,/gps,0,1,35.6751037417,128.44802913,50.016,0.3136,0.0,0.0,0.0,0.3136,0.0,0.0,0.0,1.2544,1
1588238510789873793,6657,1588238510789447069,/gps,0,1,35.67510374,128.448029127,50.016,0.3136,0.0,0.0,0.0,0.3136,0.0,0.0,0.0,1.2544,1
1588238510918093473,6658,1588238510917716026,/gps,0,1,35.67510373,128.448029128,50.018,0.3136,0.0,0.0,0.0,0.3136,0.0,0.0,0.0,1.2544,1
1588238511044437325,6659,1588238511044123888,/gps,0,1,35.67510373,128.448029138,50.019,0.3136,0.0,0.0,0.0,0.3136,0.0,0.0,0.0,1.2544,1
1588238511176604617,6660,1588238511176104068,/gps,0,1,35.6751037117,128.448029138,50.022,0.3136,0.0,0.0,0.0,0.3136,0.0,0.0,0.0,1.2544,1
1588238511304038948,6661,1588238511303407907,/gps,0,1,35.6751037183,128.448029135,50.022,0.3136,0.0,0.0,0.0,0.3136,0.0,0.0,0.0,1.2544,1
1588238511435412030,6662,1588238511434883117,/gps,0,1,35.6751037,128.448029147,50.023,0.3136,0.0,0.0,0.0,0.3136,0.0,0.0,0.0,1.2544,1
1588238511562054640,6663,1588238511560724973,/gps,0,1,35.6751036983,128.448029143,50.024,0.3136,0.0,0.0,0.0,0.3136,0.0,0.0,0.0,1.2544,1
1588238511688447644,6664,1588238511687798976,/gps,0,1,35.6751037083,128.44802914,50.023,0.3136,0.0,0.0,0.0,0.3136,0.0,0.0,0.0,1.2544,1
1588238511816495654,6665,1588238511816025972,/gps,0,1,35.6751036933,128.448029143,50.027,0.3136,0.0,0.0,0.0,0.3136,0.0,0.0,0.0,1.2544,1
1588238511945221432,6666,1588238511944698095,/gps,0,1,35.6751036883,128.448029138,50.028,0.3364,0.0,0.0,0.0,0.3364,0.0,0.0,0.0,1.3456,1
1588238512042733293,6667,1588238512042212963,/gps,0,1,35.6751036783,128.448029148,50.027,0.3364,0.0,0.0,0.0,0.3364,0.0,0.0,0.0,1.3456,1
1588238512202201272,6668,1588238512201797962,/gps,0,1,35.675103675,128.448029143,50.027,0.3364,0.0,0.0,0.0,0.3364,0.0,0.0,0.0,1.3456,1
1588238512333691339,6669,1588238512331790924,/gps,0,1,35.675103685,128.448029142,50.026,0.3364,0.0,0.0,0.0,0.3364,0.0,0.0,0.0,1.3456,1
1588238512426224338,6670,1588238512424437046,/gps,0,1,35.6751036633,128.448029147,50.032,0.3364,0.0,0.0,0.0,0.3364,0.0,0.0,0.0,1.3456,1
1588238512548998776,6671,1588238512548672914,/gps,0,1,35.6751036667,128.448029132,50.031,0.3364,0.0,0.0,0.0,0.3364,0.0,0.0,0.0,1.3456,1
1588238512679974926,6672,1588238512679338932,/gps,0,1,35.67510367,128.448029123,50.031,0.3364,0.0,0.0,0.0,0.3364,0.0,0.0,0.0,1.3456,1
1588238512809239258,6673,1588238512808743953,/gps,0,1,35.6751036633,128.448029133,50.034,0.3364,0.0,0.0,0.0,0.3364,0.0,0.0,0.0,1.3456,1
1588238512938030821,6674,1588238512936525106,/gps,0,1,35.6751036667,128.448029112,50.034,0.3025,0.0,0.0,0.0,0.3025,0.0,0.0,0.0,1.21,1
1588238513064696406,6675,1588238513063410997,/gps,0,1,35.6751036633,128.448029108,50.033,0.3364,0.0,0.0,0.0,0.3364,0.0,0.0,0.0,1.3456,1
1588238513197230563,6676,1588238513196283102,/gps,0,1,35.675103655,128.448029107,50.032,0.3136,0.0,0.0,0.0,0.3136,0.0,0.0,0.0,1.2544,1
1588238513323606445,6677,1588238513322848081,/gps,0,1,35.6751036517,128.448029097,50.035,0.3136,0.0,0.0,0.0,0.3136,0.0,0.0,0.0,1.2544,1
1588238513449650146,6678,1588238513449280977,/gps,0,1,35.67510366,128.448029087,50.033,0.3136,0.0,0.0,0.0,0.3136,0.0,0.0,0.0,1.2544,1
1588238513543109220,6679,1588238513542687892,/gps,0,1,35.6751036467,128.448029087,50.036,0.3136,0.0,0.0,0.0,0.3136,0.0,0.0,0.0,1.2544,1
1588238513675520758,6680,1588238513675106048,/gps,0,1,35.6751036483,128.448029073,50.036,0.3136,0.0,0.0,0.0,0.3136,0.0,0.0,0.0,1.2544,1
1588238513804910683,6681,1588238513803196907,/gps,0,1,35.675103645,128.448029073,50.035,0.3136,0.0,0.0,0.0,0.3136,0.0,0.0,0.0,1.2544,1
1588238513932922619,6682,1588238513929135084,/gps,0,1,35.6751036483,128.448029052,50.037,0.3364,0.0,0.0,0.0,0.3364,0.0,0.0,0.0,1.3456,1
1588238514056335202,6683,1588238514055958032,/gps,0,1,35.6751036517,128.448029052,50.033,0.3364,0.0,0.0,0.0,0.3364,0.0,0.0,0.0,1.3456,1
1588238514183083711,6684,1588238514182600021,/gps,0,1,35.6751036433,128.448029038,50.035,0.3364,0.0,0.0,0.0,0.3364,0.0,0.0,0.0,1.3456,1
1588238514313907867,6685,1588238514311933040,/gps,0,1,35.67510364,128.44802902,50.035,0.3364,0.0,0.0,0.0,0.3364,0.0,0.0,0.0,1.3456,1
1588238514441412612,6686,1588238514440082073,/gps,0,1,35.6751036383,128.44802903,50.032,0.3364,0.0,0.0,0.0,0.3364,0.0,0.0,0.0,1.3456,1
1588238514568732255,6687,1588238514568321943,/gps,0,1,35.67510364,128.448029017,50.034,0.3364,0.0,0.0,0.0,0.3364,0.0,0.0,0.0,1.3456,1
1588238514698977730,6688,1588238514698559045,/gps,0,1,35.67510362,128.448029005,50.035,0.3364,0.0,0.0,0.0,0.3364,0.0,0.0,0.0,1.3456,1
1588238514825241079,6689,1588238514824592113,/gps,0,1,35.6751036333,128.448029,50.032,0.3136,0.0,0.0,0.0,0.3136,0.0,0.0,0.0,1.2544,1
1588238514919059878,6690,1588238514918672084,/gps,0,1,35.675103625,128.448028995,50.033,0.3136,0.0,0.0,0.0,0.3136,0.0,0.0,0.0,1.2544,1
1588238515045702291,6691,1588238515044353008,/gps,0,1,35.6751036283,128.448028982,50.032,0.3364,0.0,0.0,0.0,0.3364,0.0,0.0,0.0,1.3456,1
1588238515176942926,6692,1588238515176546096,/gps,0,1,35.6751036317,128.448028977,50.03,0.3136,0.0,0.0,0.0,0.3136,0.0,0.0,0.0,1.2544,1
1588238515300531546,6693,1588238515300281047,/gps,0,1,35.67510363,128.448028962,50.027,0.3364,0.0,0.0,0.0,0.3364,0.0,0.0,0.0,1.3456,1
1588238515440717295,6694,1588238515438982009,/gps,0,1,35.6751036267,128.44802896,50.028,0.3136,0.0,0.0,0.0,0.3136,0.0,0.0,0.0,1.2544,1
1588238515565939536,6695,1588238515564627885,/gps,0,1,35.67510363,128.448028945,50.028,0.3364,0.0,0.0,0.0,0.3364,0.0,0.0,0.0,1.3456,1
1588238515688795404,6696,1588238515687738895,/gps,0,1,35.6751036317,128.44802893,50.023,0.3364,0.0,0.0,0.0,0.3364,0.0,0.0,0.0,1.3456,1
1588238515815168599,6697,1588238515814810991,/gps,0,1,35.6751036233,128.448028932,50.027,0.3364,0.0,0.0,0.0,0.3364,0.0,0.0,0.0,1.3456,1
1588238515942889836,6698,1588238515942277908,/gps,0,1,35.6751036167,128.448028912,50.027,0.3364,0.0,0.0,0.0,0.3364,0.0,0.0,0.0,1.3456,1
1588238516073685117,6699,1588238516072036027,/gps,0,1,35.6751036133,128.4480289,50.032,0.3364,0.0,0.0,0.0,0.3364,0.0,0.0,0.0,1.3456,1
1588238516201363552,6700,1588238516201046943,/gps,0,1,35.6751036083,128.448028905,50.028,0.3364,0.0,0.0,0.0,0.3364,0.0,0.0,0.0,1.3456,1
1588238516330279362,6701,1588238516329571962,/gps,0,1,35.6751036117,128.448028895,50.028,0.3364,0.0,0.0,0.0,0.3364,0.0,0.0,0.0,1.3456,1
1588238516422426619,6702,1588238516421282052,/gps,0,1,35.6751036017,128.448028892,50.029,0.3364,0.0,0.0,0.0,0.3364,0.0,0.0,0.0,1.3456,1
1588238516554893008,6703,1588238516552252054,/gps,0,1,35.6751036083,128.448028882,50.029,0.3136,0.0,0.0,0.0,0.3136,0.0,0.0,0.0,1.2544,1
1588238516680451414,6704,1588238516680061101,/gps,0,1,35.675103595,128.448028872,50.029,0.3364,0.0,0.0,0.0,0.3364,0.0,0.0,0.0,1.3456,1
1588238516805226884,6705,1588238516804848909,/gps,0,1,35.6751036017,128.44802887,50.025,0.3364,0.0,0.0,0.0,0.3364,0.0,0.0,0.0,1.3456,1
1588238516937810401,6706,1588238516937186002,/gps,0,1,35.6751035833,128.448028863,50.032,0.3364,0.0,0.0,0.0,0.3364,0.0,0.0,0.0,1.3456,1
1588238517061999579,6707,1588238517061501026,/gps,0,1,35.6751035883,128.448028857,50.027,0.3364,0.0,0.0,0.0,0.3364,0.0,0.0,0.0,1.3456,1
1588238517197965589,6708,1588238517195683956,/gps,0,1,35.67510358,128.44802885,50.03,0.3364,0.0,0.0,0.0,0.3364,0.0,0.0,0.0,1.3456,1
1588238517320677049,6709,1588238517319562911,/gps,0,1,35.67510358,128.448028832,50.029,0.3364,0.0,0.0,0.0,0.3364,0.0,0.0,0.0,1.3456,1
1588238517448155177,6710,1588238517447424888,/gps,0,1,35.6751035683,128.448028822,50.027,0.3364,0.0,0.0,0.0,0.3364,0.0,0.0,0.0,1.3456,1
1588238517577800129,6711,1588238517576910018,/gps,0,1,35.6751035567,128.448028815,50.031,0.3364,0.0,0.0,0.0,0.3364,0.0,0.0,0.0,1.3456,1
1588238517666610474,6712,1588238517666347980,/gps,0,1,35.6751035467,128.448028812,50.032,0.3364,0.0,0.0,0.0,0.3364,0.0,0.0,0.0,1.3456,1
